{
  "last_update": "2026-01-08T16:26:27.203844+00:00",
  "outages": [
    {
      "type": "planned",
      "geocoded_address": "Kasztanowa, Dębiec, Zielony Dębiec, Poznań, województwo wielkopolskie, 61-446, Polska",
      "lat": 52.3656758,
      "lon": 16.9061644,
      "start_time": "2026-01-08T08:00:00",
      "end_time": "2026-01-08T12:00:00",
      "original_description": "Chyby: ul. Szkolna 1E, 1K, od 3 do 47 od 2H do 20 parzyste, ul. Lawendowa, ul. Kwiatowa, ul. Ogrodowa, ul. Piaskowa,  ul. Kasztanowa od 3 do 7 nieparzyste.\nPoznań: ul. Dolne Chyby od 8 do 20 parzyste, ul. Wczasowa 4.",
      "id": "210794fb945bfd0ac4f5a26e47f0d151"
    },
    {
      "type": "planned",
      "geocoded_address": "Kwiatowa, Rybaki, Stare Miasto, Poznań, województwo wielkopolskie, 61-883, Polska",
      "lat": 52.401875,
      "lon": 16.9312654,
      "start_time": "2026-01-08T08:00:00",
      "end_time": "2026-01-08T12:00:00",
      "original_description": "Chyby: ul. Szkolna 1E, 1K, od 3 do 47 od 2H do 20 parzyste, ul. Lawendowa, ul. Kwiatowa, ul. Ogrodowa, ul. Piaskowa,  ul. Kasztanowa od 3 do 7 nieparzyste.\nPoznań: ul. Dolne Chyby od 8 do 20 parzyste, ul. Wczasowa 4.",
      "id": "90685ba441a5eae5cdb63c54027b8db3"
    },
    {
      "type": "planned",
      "geocoded_address": "Lawendowa, Kwiatowe, Poznań, województwo wielkopolskie, 60-175, Polska",
      "lat": 52.3866129,
      "lon": 16.8161801,
      "start_time": "2026-01-08T08:00:00",
      "end_time": "2026-01-08T12:00:00",
      "original_description": "Chyby: ul. Szkolna 1E, 1K, od 3 do 47 od 2H do 20 parzyste, ul. Lawendowa, ul. Kwiatowa, ul. Ogrodowa, ul. Piaskowa,  ul. Kasztanowa od 3 do 7 nieparzyste.\nPoznań: ul. Dolne Chyby od 8 do 20 parzyste, ul. Wczasowa 4.",
      "id": "0b56f7ece32b1298d7414563d5cd7719"
    },
    {
      "type": "planned",
      "geocoded_address": "Ogrodowa, Piekary, Stare Miasto, Poznań, województwo wielkopolskie, 61-825, Polska",
      "lat": 52.4038105,
      "lon": 16.929477,
      "start_time": "2026-01-08T08:00:00",
      "end_time": "2026-01-08T12:00:00",
      "original_description": "Chyby: ul. Szkolna 1E, 1K, od 3 do 47 od 2H do 20 parzyste, ul. Lawendowa, ul. Kwiatowa, ul. Ogrodowa, ul. Piaskowa,  ul. Kasztanowa od 3 do 7 nieparzyste.\nPoznań: ul. Dolne Chyby od 8 do 20 parzyste, ul. Wczasowa 4.",
      "id": "28c689662ff4f77cfca171e6b7da61cd"
    },
    {
      "type": "planned",
      "geocoded_address": "Piaskowa, Garbary, Stare Miasto, Poznań, województwo wielkopolskie, 61-753, Polska",
      "lat": 52.4119625,
      "lon": 16.9392776,
      "start_time": "2026-01-08T08:00:00",
      "end_time": "2026-01-08T12:00:00",
      "original_description": "Chyby: ul. Szkolna 1E, 1K, od 3 do 47 od 2H do 20 parzyste, ul. Lawendowa, ul. Kwiatowa, ul. Ogrodowa, ul. Piaskowa,  ul. Kasztanowa od 3 do 7 nieparzyste.\nPoznań: ul. Dolne Chyby od 8 do 20 parzyste, ul. Wczasowa 4.",
      "id": "9a1fdee8ef39f7db726daecb858e2903"
    },
    {
      "type": "planned",
      "geocoded_address": "Szkolna, Rybaki, Stare Miasto, Poznań, województwo wielkopolskie, 61-832, Polska",
      "lat": 52.4075185,
      "lon": 16.9322942,
      "start_time": "2026-01-08T08:00:00",
      "end_time": "2026-01-08T12:00:00",
      "original_description": "Chyby: ul. Szkolna 1E, 1K, od 3 do 47 od 2H do 20 parzyste, ul. Lawendowa, ul. Kwiatowa, ul. Ogrodowa, ul. Piaskowa,  ul. Kasztanowa od 3 do 7 nieparzyste.\nPoznań: ul. Dolne Chyby od 8 do 20 parzyste, ul. Wczasowa 4.",
      "id": "d746d917ddab0177c8d71457a7a1a7c6"
    },
    {
      "type": "planned",
      "geocoded_address": "Wczasowa, Kobylepole, Antoninek-Zieliniec-Kobylepole, Poznań, województwo wielkopolskie, 61-060, Polska",
      "lat": 52.3972742,
      "lon": 17.028723,
      "start_time": "2026-01-08T08:00:00",
      "end_time": "2026-01-08T12:00:00",
      "original_description": "Chyby: ul. Szkolna 1E, 1K, od 3 do 47 od 2H do 20 parzyste, ul. Lawendowa, ul. Kwiatowa, ul. Ogrodowa, ul. Piaskowa,  ul. Kasztanowa od 3 do 7 nieparzyste.\nPoznań: ul. Dolne Chyby od 8 do 20 parzyste, ul. Wczasowa 4.",
      "id": "e8473f253c8f625d7ffbfea80b118e53"
    },
    {
      "type": "planned",
      "geocoded_address": "56, Joachima Lelewela, Świerczewo, Poznań, województwo wielkopolskie, 61-412, Polska",
      "lat": 52.3642634,
      "lon": 16.8813036,
      "start_time": "2026-01-08T08:30:00",
      "end_time": "2026-01-08T12:30:00",
      "original_description": "Poznań: Lelewela 56, od 80 do 96 parzyste, ul. Kołłątaja od 53 do 79 nieparzyste, od 50 do 72 parzyste, ul. Grześkiewicza, ul. Vetulaniego 11.",
      "id": "6322f515f890a0371013cc838aff3406"
    },
    {
      "type": "planned",
      "geocoded_address": "Adama Grześkiewicza, Świerczewo, Poznań, województwo wielkopolskie, 61-414, Polska",
      "lat": 52.3655068,
      "lon": 16.8869699,
      "start_time": "2026-01-08T08:30:00",
      "end_time": "2026-01-08T12:30:00",
      "original_description": "Poznań: Lelewela 56, od 80 do 96 parzyste, ul. Kołłątaja od 53 do 79 nieparzyste, od 50 do 72 parzyste, ul. Grześkiewicza, ul. Vetulaniego 11.",
      "id": "ce3e7636160462c35a713a02b0d5b1e8"
    },
    {
      "type": "planned",
      "geocoded_address": "Buczka, Leszczyńska, Świerczewo, Poznań, województwo wielkopolskie, 61-417, Polska",
      "lat": 52.3638889,
      "lon": 16.8787832,
      "start_time": "2026-01-08T08:30:00",
      "end_time": "2026-01-08T12:30:00",
      "original_description": "Poznań: ul. Okulickiego od 43 do 115 nieparzyste, od 50 do 66 parzyste, od 72 do 98 parzyste, ul. Krasickiego od 25 do do 93 nieparzyste, od 36 do 110 parzyste, ul. Buczka 6, 8, 10, 12, 16, 18, 20, 22, 24, od 37 do 49 nieparzyste.",
      "id": "29083e6a881dbb739e116bbad06abdf8"
    },
    {
      "type": "planned",
      "geocoded_address": "Hugona Kołłątaja, Świerczewo, Poznań, województwo wielkopolskie, 61-413, Polska",
      "lat": 52.3649609,
      "lon": 16.8838234,
      "start_time": "2026-01-08T08:30:00",
      "end_time": "2026-01-08T12:30:00",
      "original_description": "Poznań: Lelewela 56, od 80 do 96 parzyste, ul. Kołłątaja od 53 do 79 nieparzyste, od 50 do 72 parzyste, ul. Grześkiewicza, ul. Vetulaniego 11.",
      "id": "ee4b5f52e0e74e62412177c22ffb1ae6"
    },
    {
      "type": "planned",
      "geocoded_address": "Ignacego Krasickiego, Świerczewo, Poznań, województwo wielkopolskie, 61-412, Polska",
      "lat": 52.3645236,
      "lon": 16.8818087,
      "start_time": "2026-01-08T08:30:00",
      "end_time": "2026-01-08T12:30:00",
      "original_description": "Poznań: ul. Okulickiego od 43 do 115 nieparzyste, od 50 do 66 parzyste, od 72 do 98 parzyste, ul. Krasickiego od 25 do do 93 nieparzyste, od 36 do 110 parzyste, ul. Buczka 6, 8, 10, 12, 16, 18, 20, 22, 24, od 37 do 49 nieparzyste.",
      "id": "4212a77726f018e257ad8a77b1e664c8"
    },
    {
      "type": "planned",
      "geocoded_address": "Leopolda Okulickiego, Świerczewo, Poznań, województwo wielkopolskie, 61-413, Polska",
      "lat": 52.3623806,
      "lon": 16.8837785,
      "start_time": "2026-01-08T08:30:00",
      "end_time": "2026-01-08T12:30:00",
      "original_description": "Poznań: ul. Okulickiego od 43 do 115 nieparzyste, od 50 do 66 parzyste, od 72 do 98 parzyste, ul. Krasickiego od 25 do do 93 nieparzyste, od 36 do 110 parzyste, ul. Buczka 6, 8, 10, 12, 16, 18, 20, 22, 24, od 37 do 49 nieparzyste.",
      "id": "f4ca1a96798c9d40c9055c2c9bce8e5c"
    },
    {
      "type": "planned",
      "geocoded_address": "Tadeusza Vetulaniego, Świerczewo, Poznań, województwo wielkopolskie, 61-409, Polska",
      "lat": 52.36191,
      "lon": 16.8825448,
      "start_time": "2026-01-08T08:30:00",
      "end_time": "2026-01-08T12:30:00",
      "original_description": "Poznań: Lelewela 56, od 80 do 96 parzyste, ul. Kołłątaja od 53 do 79 nieparzyste, od 50 do 72 parzyste, ul. Grześkiewicza, ul. Vetulaniego 11.",
      "id": "07f5bac781cf0c443c1a29319b28aaef"
    },
    {
      "type": "planned",
      "geocoded_address": "Chłodna, Łazarz, Poznań, województwo wielkopolskie, 60-264, Polska",
      "lat": 52.393565,
      "lon": 16.898422,
      "start_time": "2026-01-08T08:30:00",
      "end_time": "2026-01-08T15:30:00",
      "original_description": "Poznań: ul. Głogowska 91, 93, 95, ul. Chłodna 6, 8, 10.",
      "id": "31fa9af22d5779ac5fa52cdd4c0a50b1"
    },
    {
      "type": "planned",
      "geocoded_address": "Głogowska, Osiedle Hetmańskie HCP, Łazarz, Poznań, województwo wielkopolskie, 60-244, Polska",
      "lat": 52.3883109,
      "lon": 16.8923596,
      "start_time": "2026-01-08T08:30:00",
      "end_time": "2026-01-08T15:30:00",
      "original_description": "Poznań: ul. Głogowska 91, 93, 95, ul. Chłodna 6, 8, 10.",
      "id": "1f36598152c0a481b00992c0901764ba"
    },
    {
      "type": "planned",
      "geocoded_address": "Brzoskwiniowa, Szczepankowo, Szczepankowo-Spławie-Krzesinki, Poznań, województwo wielkopolskie, 61-312, Polska",
      "lat": 52.3610446,
      "lon": 17.0186095,
      "start_time": "2026-01-08T11:00:00",
      "end_time": "2026-01-08T14:30:00",
      "original_description": "Krobia ul. Brzoskwiniowa, Domachowska, Polna, Targowa, Zachodnia- całe ulice; ul. Sportowa nr 10, 12; ul. Poznańska nr 15 do 67 - nieparzyste, nr 24 do 44 - parzyste, działka nr 250, Centrum kultury i rekreacji, EP Ceramika, DINO, Karmik, ORLEN, przepompownie ścieków ( dz. nr 238/2, 410/4).",
      "id": "1c788b27627dc06b4f954f33e49137cd"
    },
    {
      "type": "planned",
      "geocoded_address": "Poznańska Ogólnokształcąca Szkoła Muzyczna I st. nr 2 im. Tadeusza Szeligowskiego, Bydgoska, Śródka, Berdychowo, Ostrów Tumski-Śródka-Zawady-Komandoria, Poznań, województwo wielkopolskie, 60-001, Polska",
      "lat": 52.4117665,
      "lon": 16.9556609,
      "start_time": "2026-01-08T11:00:00",
      "end_time": "2026-01-08T14:30:00",
      "original_description": "Krobia ul. Brzoskwiniowa, Domachowska, Polna, Targowa, Zachodnia- całe ulice; ul. Sportowa nr 10, 12; ul. Poznańska nr 15 do 67 - nieparzyste, nr 24 do 44 - parzyste, działka nr 250, Centrum kultury i rekreacji, EP Ceramika, DINO, Karmik, ORLEN, przepompownie ścieków ( dz. nr 238/2, 410/4).",
      "id": "4de7ed59480047ce503d45d1299f275e"
    },
    {
      "type": "planned",
      "geocoded_address": "Sportowa Szkoła Podstawowa nr 14 im. Władysława Łokietka, Osiedle Piastowskie, Rataje, Poznań, województwo wielkopolskie, 60-156, Polska",
      "lat": 52.3911047,
      "lon": 16.9443477,
      "start_time": "2026-01-08T11:00:00",
      "end_time": "2026-01-08T14:30:00",
      "original_description": "Krobia ul. Brzoskwiniowa, Domachowska, Polna, Targowa, Zachodnia- całe ulice; ul. Sportowa nr 10, 12; ul. Poznańska nr 15 do 67 - nieparzyste, nr 24 do 44 - parzyste, działka nr 250, Centrum kultury i rekreacji, EP Ceramika, DINO, Karmik, ORLEN, przepompownie ścieków ( dz. nr 238/2, 410/4).",
      "id": "d13d89ba57699df31b7aa5e0859e6e80"
    },
    {
      "type": "planned",
      "geocoded_address": "Lęborska, Smochowice, Krzyżowniki-Smochowice, Poznań, województwo wielkopolskie, 60-431, Polska",
      "lat": 52.436224,
      "lon": 16.8359188,
      "start_time": "2026-01-09T08:30:00",
      "end_time": "2026-01-09T11:30:00",
      "original_description": "Poznań: ul. Lęborska 46, 47, 47A, 49, ul. Trzebiatowska od 26 do 48 parzyste, od 27A do 53 nieparzyste, ul. Santocka 15A, 17, 28, 30, 32, ul. Sianowska 58.",
      "id": "ac1d9bf64a87eb6bbcd5545670c351c9"
    },
    {
      "type": "planned",
      "geocoded_address": "Santocka, Sytkowo, Smochowice, Krzyżowniki-Smochowice, Poznań, województwo wielkopolskie, 60-432, Polska",
      "lat": 52.4381887,
      "lon": 16.8305414,
      "start_time": "2026-01-09T08:30:00",
      "end_time": "2026-01-09T11:30:00",
      "original_description": "Poznań: ul. Lęborska 46, 47, 47A, 49, ul. Trzebiatowska od 26 do 48 parzyste, od 27A do 53 nieparzyste, ul. Santocka 15A, 17, 28, 30, 32, ul. Sianowska 58.",
      "id": "00cd1c5f3a60acb9a70043626b12b599"
    },
    {
      "type": "planned",
      "geocoded_address": "Sianowska, Sytkowo, Smochowice, Krzyżowniki-Smochowice, Poznań, województwo wielkopolskie, 60-452, Polska",
      "lat": 52.4351785,
      "lon": 16.8198449,
      "start_time": "2026-01-09T08:30:00",
      "end_time": "2026-01-09T11:30:00",
      "original_description": "Poznań: ul. Lęborska 46, 47, 47A, 49, ul. Trzebiatowska od 26 do 48 parzyste, od 27A do 53 nieparzyste, ul. Santocka 15A, 17, 28, 30, 32, ul. Sianowska 58.",
      "id": "67164d3709351c727a09ce20522c2c2b"
    },
    {
      "type": "planned",
      "geocoded_address": "Trzebiatowska, Smochowice, Krzyżowniki-Smochowice, Poznań, województwo wielkopolskie, 60-431, Polska",
      "lat": 52.436923,
      "lon": 16.8355248,
      "start_time": "2026-01-09T08:30:00",
      "end_time": "2026-01-09T11:30:00",
      "original_description": "Poznań: ul. Lęborska 46, 47, 47A, 49, ul. Trzebiatowska od 26 do 48 parzyste, od 27A do 53 nieparzyste, ul. Santocka 15A, 17, 28, 30, 32, ul. Sianowska 58.",
      "id": "7d8f820d2dfcd32c0680da226ea5fbf9"
    },
    {
      "type": "planned",
      "geocoded_address": "ENEA Stadion, Rumuńska, Kasztelanów, Grunwald Południe, Poznań, województwo wielkopolskie, 60-322, Polska",
      "lat": 52.3976795,
      "lon": 16.8581003,
      "start_time": "2026-01-09T09:00:00",
      "end_time": "2026-01-09T10:00:00",
      "original_description": "Poznań: os. Lecha 129 \"Firanki\".",
      "id": "41c149f21f2fb38eee4d969e2f9ef0ec"
    },
    {
      "type": "planned",
      "geocoded_address": "Regatowa, Kiekrz, Poznań, województwo wielkopolskie, 60-480, Polska",
      "lat": 52.4747964,
      "lon": 16.7684207,
      "start_time": "2026-01-09T09:00:00",
      "end_time": "2026-01-09T15:00:00",
      "original_description": "Poznań: ul. Regatowa 39, 41, 54, 56, 58, 60, 62.",
      "id": "9ca070fcfd7c97973af239cf96992954"
    },
    {
      "type": "planned",
      "geocoded_address": "Piątkowska, Osiedle Przyjaźni, Osiedle Studenckie, Winiary, Poznań, województwo wielkopolskie, 60-001, Polska",
      "lat": 52.4248211,
      "lon": 16.9184756,
      "start_time": "2026-01-12T08:00:00",
      "end_time": "2026-01-12T14:00:00",
      "original_description": "Poznań: ul. Obornicka 338.",
      "id": "51449d4a28404922b35fa7e4fd415f5e"
    },
    {
      "type": "planned",
      "geocoded_address": "Bażanta, Kliny, gmina Czerwonak, powiat poznański, województwo wielkopolskie, 62-008, Polska",
      "lat": 52.4773806,
      "lon": 17.0410692,
      "start_time": "2026-01-13T08:00:00",
      "end_time": "2026-01-13T12:00:00",
      "original_description": "Kliny: ul. Sokoła, ul. Poznańska dz. 61/2, ul. Bażanta, ul. Przepiórki, ul. Krucza, ul. Sowia.",
      "id": "f3bb56d0a58fc6bbb3a33f97faf09156"
    },
    {
      "type": "planned",
      "geocoded_address": "Krucza, Rataje, Poznań, województwo wielkopolskie, 61-387, Polska",
      "lat": 52.3844304,
      "lon": 16.9496195,
      "start_time": "2026-01-13T08:00:00",
      "end_time": "2026-01-13T12:00:00",
      "original_description": "Kliny: ul. Sokoła, ul. Poznańska dz. 61/2, ul. Bażanta, ul. Przepiórki, ul. Krucza, ul. Sowia.",
      "id": "1baa9044c12ec170833c7c3fcd1b3f4e"
    },
    {
      "type": "planned",
      "geocoded_address": "Poznańska, Jeżyckie Osiedle, Rynek Jeżycki, Jeżyce, Poznań, województwo wielkopolskie, 60-848, Polska",
      "lat": 52.4133513,
      "lon": 16.9048857,
      "start_time": "2026-01-13T08:00:00",
      "end_time": "2026-01-13T12:00:00",
      "original_description": "Kliny: ul. Sokoła, ul. Poznańska dz. 61/2, ul. Bażanta, ul. Przepiórki, ul. Krucza, ul. Sowia.",
      "id": "506597d5a6651f5b795ba6ac063ffb0e"
    },
    {
      "type": "planned",
      "geocoded_address": "Przepiórki, Rakownia, gmina Murowana Goślina, powiat poznański, województwo wielkopolskie, 62-095, Polska",
      "lat": 52.5653197,
      "lon": 17.0352374,
      "start_time": "2026-01-13T08:00:00",
      "end_time": "2026-01-13T12:00:00",
      "original_description": "Kliny: ul. Sokoła, ul. Poznańska dz. 61/2, ul. Bażanta, ul. Przepiórki, ul. Krucza, ul. Sowia.",
      "id": "53f76f97c180fd0707a26b8006053d20"
    },
    {
      "type": "planned",
      "geocoded_address": "Sokoła, Osiedle Studenckie, Winiary, Poznań, województwo wielkopolskie, 60-653, Polska",
      "lat": 52.4288613,
      "lon": 16.9125281,
      "start_time": "2026-01-13T08:00:00",
      "end_time": "2026-01-13T12:00:00",
      "original_description": "Kliny: ul. Sokoła, ul. Poznańska dz. 61/2, ul. Bażanta, ul. Przepiórki, ul. Krucza, ul. Sowia.",
      "id": "23162a4550d3fb276c5fe13b216b5829"
    },
    {
      "type": "planned",
      "geocoded_address": "Sowia, Miasteczko, Łacina, Rataje, Poznań, województwo wielkopolskie, 61-139, Polska",
      "lat": 52.3989433,
      "lon": 16.9567029,
      "start_time": "2026-01-13T08:00:00",
      "end_time": "2026-01-13T12:00:00",
      "original_description": "Kliny: ul. Sokoła, ul. Poznańska dz. 61/2, ul. Bażanta, ul. Przepiórki, ul. Krucza, ul. Sowia.",
      "id": "66f3a94d7db75f6c20c57796a05ecf39"
    },
    {
      "type": "planned",
      "geocoded_address": "Piątkowska, Osiedle Przyjaźni, Osiedle Studenckie, Winiary, Poznań, województwo wielkopolskie, 60-001, Polska",
      "lat": 52.4248211,
      "lon": 16.9184756,
      "start_time": "2026-01-13T08:00:00",
      "end_time": "2026-01-13T14:00:00",
      "original_description": "Poznań: ul. Obornicka 229 dz. 8/2 stacja telefonii komórkowej.",
      "id": "6723e951c2044100526ebba8e05c99e7"
    },
    {
      "type": "planned",
      "geocoded_address": "Darłowska, Sytkowo, Smochowice, Krzyżowniki-Smochowice, Poznań, województwo wielkopolskie, 60-452, Polska",
      "lat": 52.4328863,
      "lon": 16.8243857,
      "start_time": "2026-01-13T08:30:00",
      "end_time": "2026-01-13T11:30:00",
      "original_description": "Poznań: ul. Kościerzyńska od 3 do 47 nieparzyste, od 8 do 34 parzyste, ul. Kwidzyńska, ul. Darłowska 52, 52A, 54, 56, 71, ul. Sianowska od 99 do 113 nieparzyste, od 112 do 128 parzyste, ul. Dziwnowska 6, 8, 10, ul. Dąbrowskiego 485.",
      "id": "61cb907cb2c9e5adf07fb889cd33929b"
    },
    {
      "type": "planned",
      "geocoded_address": "Dziwnowska, Smochowice, Krzyżowniki-Smochowice, Poznań, województwo wielkopolskie, 60-452, Polska",
      "lat": 52.4357123,
      "lon": 16.8195259,
      "start_time": "2026-01-13T08:30:00",
      "end_time": "2026-01-13T11:30:00",
      "original_description": "Poznań: ul. Kościerzyńska od 3 do 47 nieparzyste, od 8 do 34 parzyste, ul. Kwidzyńska, ul. Darłowska 52, 52A, 54, 56, 71, ul. Sianowska od 99 do 113 nieparzyste, od 112 do 128 parzyste, ul. Dziwnowska 6, 8, 10, ul. Dąbrowskiego 485.",
      "id": "65832f9f0f83ef9adb4272d73d1d8dc4"
    },
    {
      "type": "planned",
      "geocoded_address": "Kościerzyńska, Smochowice, Krzyżowniki-Smochowice, Poznań, województwo wielkopolskie, 60-453, Polska",
      "lat": 52.4355937,
      "lon": 16.8163307,
      "start_time": "2026-01-13T08:30:00",
      "end_time": "2026-01-13T11:30:00",
      "original_description": "Poznań: ul. Kościerzyńska od 3 do 47 nieparzyste, od 8 do 34 parzyste, ul. Kwidzyńska, ul. Darłowska 52, 52A, 54, 56, 71, ul. Sianowska od 99 do 113 nieparzyste, od 112 do 128 parzyste, ul. Dziwnowska 6, 8, 10, ul. Dąbrowskiego 485.",
      "id": "7d3efa713f06db2b49580eee2dc648a4"
    },
    {
      "type": "planned",
      "geocoded_address": "Kwidzyńska, Smochowice, Krzyżowniki-Smochowice, Poznań, województwo wielkopolskie, 60-446, Polska",
      "lat": 52.4340224,
      "lon": 16.8191309,
      "start_time": "2026-01-13T08:30:00",
      "end_time": "2026-01-13T11:30:00",
      "original_description": "Poznań: ul. Kościerzyńska od 3 do 47 nieparzyste, od 8 do 34 parzyste, ul. Kwidzyńska, ul. Darłowska 52, 52A, 54, 56, 71, ul. Sianowska od 99 do 113 nieparzyste, od 112 do 128 parzyste, ul. Dziwnowska 6, 8, 10, ul. Dąbrowskiego 485.",
      "id": "b6c8a31352cc28d9a71130a0b6d1cc52"
    },
    {
      "type": "planned",
      "geocoded_address": "Park Jana Henryka Dąbrowskiego, Piekary, Stare Miasto, Poznań, województwo wielkopolskie, 61-888, Polska",
      "lat": 52.4027893,
      "lon": 16.9272205,
      "start_time": "2026-01-13T08:30:00",
      "end_time": "2026-01-13T11:30:00",
      "original_description": "Poznań: ul. Kościerzyńska od 3 do 47 nieparzyste, od 8 do 34 parzyste, ul. Kwidzyńska, ul. Darłowska 52, 52A, 54, 56, 71, ul. Sianowska od 99 do 113 nieparzyste, od 112 do 128 parzyste, ul. Dziwnowska 6, 8, 10, ul. Dąbrowskiego 485.",
      "id": "725a5271f314533263c1c1d4fc4795dd"
    },
    {
      "type": "planned",
      "geocoded_address": "Sianowska, Sytkowo, Smochowice, Krzyżowniki-Smochowice, Poznań, województwo wielkopolskie, 60-452, Polska",
      "lat": 52.4351785,
      "lon": 16.8198449,
      "start_time": "2026-01-13T08:30:00",
      "end_time": "2026-01-13T11:30:00",
      "original_description": "Poznań: ul. Kościerzyńska od 3 do 47 nieparzyste, od 8 do 34 parzyste, ul. Kwidzyńska, ul. Darłowska 52, 52A, 54, 56, 71, ul. Sianowska od 99 do 113 nieparzyste, od 112 do 128 parzyste, ul. Dziwnowska 6, 8, 10, ul. Dąbrowskiego 485.",
      "id": "2ad12ad2dbec99402a59fcc3ad2c6a44"
    },
    {
      "type": "planned",
      "geocoded_address": "Dereniowa, Szczepankowo, Szczepankowo-Spławie-Krzesinki, Poznań, województwo wielkopolskie, 61-306, Polska",
      "lat": 52.3605579,
      "lon": 17.0285227,
      "start_time": "2026-01-13T08:30:00",
      "end_time": "2026-01-13T15:30:00",
      "original_description": "Poznań: ul. Dereniowa od 22 do 38 parzyste, od 37 do 43 nieparzyste.",
      "id": "20e3e38e7373fb4c988c3926364854e5"
    },
    {
      "type": "planned",
      "geocoded_address": "Gościnna, Spławie, Szczepankowo-Spławie-Krzesinki, Poznań, województwo wielkopolskie, 61-313, Polska",
      "lat": 52.3488352,
      "lon": 17.0334734,
      "start_time": "2026-01-14T08:30:00",
      "end_time": "2026-01-14T15:30:00",
      "original_description": "Poznań: ul. Gościnna dz. 1/349, dz. 1/350, dz. 1/351, dz. 1/363, dz. 1/365.",
      "id": "6bab73d2ef80e7120e9efbc125d97fac"
    },
    {
      "type": "planned",
      "geocoded_address": "Przeskok, Pokrzywno, Krzesiny-Pokrzywno-Garaszewo, Poznań, województwo wielkopolskie, 61-309, Polska",
      "lat": 52.3648714,
      "lon": 16.9902253,
      "start_time": "2026-01-15T08:30:00",
      "end_time": "2026-01-15T10:30:00",
      "original_description": "Poznań: ul. Przeskok 3, 3A.",
      "id": "9493ffe10f534041adbe1a712895c497"
    },
    {
      "type": "planned",
      "geocoded_address": "Wagrowska, Starołęka Mała, Starołęka-Minikowo-Marlewo, Poznań, województwo wielkopolskie, 61-373, Polska",
      "lat": 52.3786813,
      "lon": 16.9446854,
      "start_time": "2026-01-15T08:30:00",
      "end_time": "2026-01-15T15:30:00",
      "original_description": "Poznań: ul. Wagrowska 6, 10.",
      "id": "9975affe4ae83742e2f1baafc602efe3"
    },
    {
      "type": "planned",
      "geocoded_address": "Kozia, Piekary, Stare Miasto, Poznań, województwo wielkopolskie, 61-770, Polska",
      "lat": 52.4072732,
      "lon": 16.9308082,
      "start_time": "2026-01-15T09:00:00",
      "end_time": "2026-01-15T11:00:00",
      "original_description": "Poznań: ul. Kozia 5, 6, ul. Świętosławska 6, 7, 8, 9, 10.",
      "id": "9a1ac7e135ad16b59549c669851ed516"
    },
    {
      "type": "planned",
      "geocoded_address": "Świętosławska, Garbary, Chwaliszewo, Stare Miasto, Poznań, województwo wielkopolskie, 61-840, Polska",
      "lat": 52.4070198,
      "lon": 16.9342512,
      "start_time": "2026-01-15T09:00:00",
      "end_time": "2026-01-15T11:00:00",
      "original_description": "Poznań: ul. Kozia 5, 6, ul. Świętosławska 6, 7, 8, 9, 10.",
      "id": "acc85281674cf10e35ece43c1e71b916"
    },
    {
      "type": "planned",
      "geocoded_address": "Świętego Wincentego, Zawady, Zagórze, Ostrów Tumski-Śródka-Zawady-Komandoria, Poznań, województwo wielkopolskie, 61-003, Polska",
      "lat": 52.4141515,
      "lon": 16.9532481,
      "start_time": "2026-01-15T16:00:00",
      "end_time": "2026-01-15T17:00:00",
      "original_description": "Poznań: ul. Św. Wincentego 10, 12, 15, parking.",
      "id": "d0d425e0b165d8325d64a0221e8fb560"
    },
    {
      "type": "planned",
      "geocoded_address": "Gościnna, Spławie, Szczepankowo-Spławie-Krzesinki, Poznań, województwo wielkopolskie, 61-313, Polska",
      "lat": 52.3488352,
      "lon": 17.0334734,
      "start_time": "2026-01-19T08:30:00",
      "end_time": "2026-01-19T15:30:00",
      "original_description": "Poznań: ul. Gościnna dz. 1/349, dz. 1/350, dz. 1/351, dz. 1/363, dz. 1/365.",
      "id": "683fab521210ebd6cbfbcc8801aa4d11"
    },
    {
      "type": "planned",
      "geocoded_address": "Jawornicka, Junikowo, Poznań, województwo wielkopolskie, 60-322, Polska",
      "lat": 52.389702,
      "lon": 16.8538982,
      "start_time": "2026-01-20T07:30:00",
      "end_time": "2026-01-20T13:30:00",
      "original_description": "Poznań: ul. Jawornicka 46, 50, 52.",
      "id": "bdd2167689e28ca2be07e47dc0a84a10"
    },
    {
      "type": "planned",
      "geocoded_address": "Huby Moraskie, Morasko, Morasko-Radojewo, Poznań, województwo wielkopolskie, 61-680, Polska",
      "lat": 52.4795026,
      "lon": 16.9188663,
      "start_time": "2026-01-20T08:00:00",
      "end_time": "2026-01-20T11:30:00",
      "original_description": "Poznań: ul. Huby Moraskie 20, 22, 24, 25, 26, 27, 29, 31, ul. Rumiankowa 132, 134, dz. 295/6.",
      "id": "d97e05e03d3060030b89ad83594fef12"
    },
    {
      "type": "planned",
      "geocoded_address": "Rumiankowa, Umultowo, Poznań, województwo wielkopolskie, 61-601, Polska",
      "lat": 52.4758672,
      "lon": 16.9442574,
      "start_time": "2026-01-20T08:00:00",
      "end_time": "2026-01-20T11:30:00",
      "original_description": "Poznań: ul. Huby Moraskie 20, 22, 24, 25, 26, 27, 29, 31, ul. Rumiankowa 132, 134, dz. 295/6.",
      "id": "c28a494b8c631d63ca96ccf5150cfc28"
    },
    {
      "type": "planned",
      "geocoded_address": "Lipowa, Wilda, Poznań, województwo wielkopolskie, 61-478, Polska",
      "lat": 52.3751532,
      "lon": 16.9085839,
      "start_time": "2026-01-20T08:00:00",
      "end_time": "2026-01-20T12:00:00",
      "original_description": "Puszczykowo ul. Lipowa, ul. Owocowa, ul. Poznańska 109,",
      "id": "5e39cdbd2cff1bfadc402fe69a108de6"
    },
    {
      "type": "planned",
      "geocoded_address": "Owocowa, Szczepankowo, Szczepankowo-Spławie-Krzesinki, Poznań, województwo wielkopolskie, 61-310, Polska",
      "lat": 52.3653318,
      "lon": 17.0182361,
      "start_time": "2026-01-20T08:00:00",
      "end_time": "2026-01-20T12:00:00",
      "original_description": "Puszczykowo ul. Lipowa, ul. Owocowa, ul. Poznańska 109,",
      "id": "4f7a14b590d52c55abbdf2c884deff98"
    },
    {
      "type": "planned",
      "geocoded_address": "Poznańska, Rynek Jeżycki, Jeżyce, Poznań, województwo wielkopolskie, 60-848, Polska",
      "lat": 52.4133513,
      "lon": 16.9048857,
      "start_time": "2026-01-20T08:00:00",
      "end_time": "2026-01-20T12:00:00",
      "original_description": "Puszczykowo ul. Lipowa, ul. Owocowa, ul. Poznańska 109,",
      "id": "2f2c9c54253102e1d15553e923be4050"
    },
    {
      "type": "planned",
      "geocoded_address": "Bobrzańska, Osiedle Orła Białego, Żegrze, Poznań, województwo wielkopolskie, 61-242, Polska",
      "lat": 52.383534,
      "lon": 16.9712599,
      "start_time": "2026-01-20T08:30:00",
      "end_time": "2026-01-20T10:00:00",
      "original_description": "Poznań: ul. Ślężańska od 1 do 43 nieparzyste, od 8 do 26 parzyste, ul. Bobrzańska 20, os. Orla Białego 86A, ul. Dziadoszańska 41, 43.",
      "id": "1deee39188b71d2b70953f54e5f84c72"
    },
    {
      "type": "planned",
      "geocoded_address": "Bolesława Krzywoustego, Żegrze, Poznań, województwo wielkopolskie, 61-292, Polska",
      "lat": 52.3748378,
      "lon": 16.9810699,
      "start_time": "2026-01-20T08:30:00",
      "end_time": "2026-01-20T10:00:00",
      "original_description": "Poznań: ul. Ślężańska od 1 do 43 nieparzyste, od 8 do 26 parzyste, ul. Bobrzańska 20, os. Orla Białego 86A, ul. Dziadoszańska 41, 43.",
      "id": "52644bd467643d84c0088a7aaf0c89d6"
    },
    {
      "type": "planned",
      "geocoded_address": "Osiedle Orła Białego, Żegrze, Poznań, województwo wielkopolskie, 61-251, Polska",
      "lat": 52.3784821,
      "lon": 16.9657192,
      "start_time": "2026-01-20T08:30:00",
      "end_time": "2026-01-20T10:00:00",
      "original_description": "Poznań: ul. Ślężańska od 1 do 43 nieparzyste, od 8 do 26 parzyste, ul. Bobrzańska 20, os. Orla Białego 86A, ul. Dziadoszańska 41, 43.",
      "id": "9c26c717af2c82813bf533528092a825"
    },
    {
      "type": "planned",
      "geocoded_address": "Ślężańska, Osiedle Orła Białego, Żegrze, Poznań, województwo wielkopolskie, 61-248, Polska",
      "lat": 52.3798464,
      "lon": 16.9724148,
      "start_time": "2026-01-20T08:30:00",
      "end_time": "2026-01-20T10:00:00",
      "original_description": "Poznań: ul. Ślężańska od 1 do 43 nieparzyste, od 8 do 26 parzyste, ul. Bobrzańska 20, os. Orla Białego 86A, ul. Dziadoszańska 41, 43.",
      "id": "13d6517ec36636d9e9c3b69c97d526b9"
    },
    {
      "type": "planned",
      "geocoded_address": "Bukowska, Łazarz, Poznań, województwo wielkopolskie, 60-809, Polska",
      "lat": 52.4063647,
      "lon": 16.9116898,
      "start_time": "2026-01-21T08:30:00",
      "end_time": "2026-01-21T10:00:00",
      "original_description": "Poznań: ul. Policka 18, 18A,  przepompownia, ul. Bukowska 440, ROD \"Leśna Polana\".",
      "id": "0b3976a3e73086eb1e3c230687842ac1"
    },
    {
      "type": "planned",
      "geocoded_address": "Policka, Ławica, Poznań, województwo wielkopolskie, 60-183, Polska",
      "lat": 52.4114,
      "lon": 16.8175823,
      "start_time": "2026-01-21T08:30:00",
      "end_time": "2026-01-21T10:00:00",
      "original_description": "Poznań: ul. Policka 18, 18A,  przepompownia, ul. Bukowska 440, ROD \"Leśna Polana\".",
      "id": "7ee7be060cc6b9ca7d9cde60c3a3db4f"
    },
    {
      "type": "unplanned",
      "geocoded_address": "Poznańska, Rynek Jeżycki, Jeżyce, Poznań, województwo wielkopolskie, 60-848, Polska",
      "lat": 52.4133513,
      "lon": 16.9048857,
      "start_time": "Brak danych",
      "end_time": "2026-01-08T03:30:00",
      "original_description": "Granowo ul. Poznańska, ul. Sportowa, ul. Wspólna, Kotowo, Kubaczyn, Płastowo.",
      "id": "b3d4e9d6b2e6346b47af9fe909a9c24b"
    },
    {
      "type": "unplanned",
      "geocoded_address": "Sportowa, Wilda, Poznań, województwo wielkopolskie, 61-489, Polska",
      "lat": 52.3805603,
      "lon": 16.9144143,
      "start_time": "Brak danych",
      "end_time": "2026-01-08T03:30:00",
      "original_description": "Granowo ul. Poznańska, ul. Sportowa, ul. Wspólna, Kotowo, Kubaczyn, Płastowo.",
      "id": "9eb0779e4fccabebd93138ae634792c4"
    },
    {
      "type": "unplanned",
      "geocoded_address": "Wspólna, Wilda, Poznań, województwo wielkopolskie, 61-492, Polska",
      "lat": 52.3761625,
      "lon": 16.9184364,
      "start_time": "Brak danych",
      "end_time": "2026-01-08T03:30:00",
      "original_description": "Granowo ul. Poznańska, ul. Sportowa, ul. Wspólna, Kotowo, Kubaczyn, Płastowo.",
      "id": "bebd8732acd018ecf9b837d87f894491"
    },
    {
      "type": "unplanned",
      "geocoded_address": "Gołębia, Rybaki, Stare Miasto, Poznań, województwo wielkopolskie, 61-832, Polska",
      "lat": 52.4067111,
      "lon": 16.9325619,
      "start_time": "Brak danych",
      "end_time": "2026-01-08T10:30:00",
      "original_description": "Poznań ul. Gołębia, ul. Podgórna, ul. Szkolna, ul. Świętosławska, ul. Wrocławska.",
      "id": "1402286c0952fd554721261d9e6fd981"
    },
    {
      "type": "unplanned",
      "geocoded_address": "Podgórna, Piekary, Stare Miasto, Poznań, województwo wielkopolskie, 61-828, Polska",
      "lat": 52.4062698,
      "lon": 16.9302717,
      "start_time": "Brak danych",
      "end_time": "2026-01-08T10:30:00",
      "original_description": "Poznań ul. Gołębia, ul. Podgórna, ul. Szkolna, ul. Świętosławska, ul. Wrocławska.",
      "id": "fb1a1185d5107e7d3da5e4d0ed6dcbad"
    },
    {
      "type": "unplanned",
      "geocoded_address": "Szkolna, Rybaki, Stare Miasto, Poznań, województwo wielkopolskie, 61-832, Polska",
      "lat": 52.4075185,
      "lon": 16.9322942,
      "start_time": "Brak danych",
      "end_time": "2026-01-08T10:30:00",
      "original_description": "Poznań ul. Gołębia, ul. Podgórna, ul. Szkolna, ul. Świętosławska, ul. Wrocławska.",
      "id": "66b9a82658a1adeb0ad88069b5440a99"
    },
    {
      "type": "unplanned",
      "geocoded_address": "Wrocławska, Rybaki, Stare Miasto, Poznań, województwo wielkopolskie, 61-838, Polska",
      "lat": 52.4064287,
      "lon": 16.9330123,
      "start_time": "Brak danych",
      "end_time": "2026-01-08T10:30:00",
      "original_description": "Poznań ul. Gołębia, ul. Podgórna, ul. Szkolna, ul. Świętosławska, ul. Wrocławska.",
      "id": "02a892119396712e0958dd639328b7ed"
    },
    {
      "type": "unplanned",
      "geocoded_address": "Świętosławska, Garbary, Chwaliszewo, Stare Miasto, Poznań, województwo wielkopolskie, 61-840, Polska",
      "lat": 52.4070198,
      "lon": 16.9342512,
      "start_time": "Brak danych",
      "end_time": "2026-01-08T10:30:00",
      "original_description": "Poznań ul. Gołębia, ul. Podgórna, ul. Szkolna, ul. Świętosławska, ul. Wrocławska.",
      "id": "db7754033ded07af03e3270ccbfdc8fc"
    },
    {
      "type": "unplanned",
      "geocoded_address": "Gołębia, Rybaki, Stare Miasto, Poznań, województwo wielkopolskie, 61-832, Polska",
      "lat": 52.4067111,
      "lon": 16.9325619,
      "start_time": "Brak danych",
      "end_time": "2026-01-08T12:00:00",
      "original_description": "Poznań ul. Gołębia, ul. Podgórna, ul. Szkolna, ul. Świętosławska, ul. Wrocławska.",
      "id": "0836f29bea3e9ab871b63c503af3a267"
    },
    {
      "type": "unplanned",
      "geocoded_address": "Podgórna, Piekary, Stare Miasto, Poznań, województwo wielkopolskie, 61-828, Polska",
      "lat": 52.4062698,
      "lon": 16.9302717,
      "start_time": "Brak danych",
      "end_time": "2026-01-08T12:00:00",
      "original_description": "Poznań ul. Gołębia, ul. Podgórna, ul. Szkolna, ul. Świętosławska, ul. Wrocławska.",
      "id": "7366a5d96db0d744540d2cb1a10f0983"
    },
    {
      "type": "unplanned",
      "geocoded_address": "Szkolna, Rybaki, Stare Miasto, Poznań, województwo wielkopolskie, 61-832, Polska",
      "lat": 52.4075185,
      "lon": 16.9322942,
      "start_time": "Brak danych",
      "end_time": "2026-01-08T12:00:00",
      "original_description": "Poznań ul. Gołębia, ul. Podgórna, ul. Szkolna, ul. Świętosławska, ul. Wrocławska.",
      "id": "c4fe571039cc1c49a72fbd3559d4d2a5"
    },
    {
      "type": "unplanned",
      "geocoded_address": "Wrocławska, Rybaki, Stare Miasto, Poznań, województwo wielkopolskie, 61-838, Polska",
      "lat": 52.4064287,
      "lon": 16.9330123,
      "start_time": "Brak danych",
      "end_time": "2026-01-08T12:00:00",
      "original_description": "Poznań ul. Gołębia, ul. Podgórna, ul. Szkolna, ul. Świętosławska, ul. Wrocławska.",
      "id": "3f2f884a5e342f2ac91eda9f5a05cede"
    },
    {
      "type": "unplanned",
      "geocoded_address": "Świętosławska, Garbary, Chwaliszewo, Stare Miasto, Poznań, województwo wielkopolskie, 61-840, Polska",
      "lat": 52.4070198,
      "lon": 16.9342512,
      "start_time": "Brak danych",
      "end_time": "2026-01-08T12:00:00",
      "original_description": "Poznań ul. Gołębia, ul. Podgórna, ul. Szkolna, ul. Świętosławska, ul. Wrocławska.",
      "id": "6ab7eb63298b42fa044c0d2b754ff2e1"
    },
    {
      "type": "unplanned",
      "geocoded_address": "Poznańska, Rynek Jeżycki, Jeżyce, Poznań, województwo wielkopolskie, 60-848, Polska",
      "lat": 52.4133513,
      "lon": 16.9048857,
      "start_time": "Brak danych",
      "end_time": "2026-01-08T14:00:00",
      "original_description": "Strykowo ul. Poznańska, ul. Zielarska.",
      "id": "19530651e94c89431c2332b18ecdfc9c"
    },
    {
      "type": "unplanned",
      "geocoded_address": "Zielarska, Gołuski, gmina Dopiewo, powiat poznański, województwo wielkopolskie, 62-069, Polska",
      "lat": 52.3624804,
      "lon": 16.7470252,
      "start_time": "Brak danych",
      "end_time": "2026-01-08T14:00:00",
      "original_description": "Strykowo ul. Poznańska, ul. Zielarska.",
      "id": "f86653494fb748acdd101780e4ddb44c"
    }
  ]
}