{
  "last_update": "2026-07-05T04:32:28.557685+00:00",
  "outages": [
    {
      "type": "planned",
      "geocoded_address": "Junikowska, Junikowo, Poznań, województwo wielkopolskie, 60-164, Polska",
      "lat": 52.38356,
      "lon": 16.8475804,
      "start_time": "2026-07-06T08:30:00",
      "end_time": "2026-07-06T11:30:00",
      "original_description": "Poznań: ul. Junikowska 48, 48A, od 9 do 33B nieparzyste, od 22 do 46 parzyste, ul. Ziębicka 41A, 41B, 41C.",
      "id": "76c961a6a4e7b45be61d8b01e829a8fe"
    },
    {
      "type": "planned",
      "geocoded_address": "Ziębicka, Junikowo, Poznań, województwo wielkopolskie, 60-164, Polska",
      "lat": 52.3835035,
      "lon": 16.8450278,
      "start_time": "2026-07-06T08:30:00",
      "end_time": "2026-07-06T11:30:00",
      "original_description": "Poznań: ul. Junikowska 48, 48A, od 9 do 33B nieparzyste, od 22 do 46 parzyste, ul. Ziębicka 41A, 41B, 41C.",
      "id": "a1a9805db03ef63da24e06b920c2e1f6"
    },
    {
      "type": "planned",
      "geocoded_address": "Glebowa, Szczepankowo, Szczepankowo-Spławie-Krzesinki, Poznań, województwo wielkopolskie, 61-312, Polska",
      "lat": 52.3551889,
      "lon": 17.0157795,
      "start_time": "2026-07-06T08:30:00",
      "end_time": "2026-07-06T15:30:00",
      "original_description": "Poznań: ul. Spławie 49, 49A, od 51 do 53 nieparzyste, 53A, 50, ul. Snopowa od 1 do 39 nieparzyste, od 4 do 32 parzyste, ul. Glebowa od 57 do 63 nieparzyste, od 64 do 78 parzyste, dz. 27.",
      "id": "2e4348eba82a5577385fb5578d04f604"
    },
    {
      "type": "planned",
      "geocoded_address": "Snopowa, Spławie, Szczepankowo-Spławie-Krzesinki, Poznań, województwo wielkopolskie, 61-312, Polska",
      "lat": 52.353982,
      "lon": 17.0207315,
      "start_time": "2026-07-06T08:30:00",
      "end_time": "2026-07-06T15:30:00",
      "original_description": "Poznań: ul. Spławie 49, 49A, od 51 do 53 nieparzyste, 53A, 50, ul. Snopowa od 1 do 39 nieparzyste, od 4 do 32 parzyste, ul. Glebowa od 57 do 63 nieparzyste, od 64 do 78 parzyste, dz. 27.",
      "id": "bf31d5ae9e226f51a18e6f3ad9a46d09"
    },
    {
      "type": "planned",
      "geocoded_address": "Spławie, Szczepankowo-Spławie-Krzesinki, Poznań, województwo wielkopolskie, Polska",
      "lat": 52.3511524,
      "lon": 17.0242204,
      "start_time": "2026-07-06T08:30:00",
      "end_time": "2026-07-06T15:30:00",
      "original_description": "Poznań: ul. Spławie 49, 49A, od 51 do 53 nieparzyste, 53A, 50, ul. Snopowa od 1 do 39 nieparzyste, od 4 do 32 parzyste, ul. Glebowa od 57 do 63 nieparzyste, od 64 do 78 parzyste, dz. 27.",
      "id": "defd045ac1b1729c7405dc6c5ca9c435"
    },
    {
      "type": "planned",
      "geocoded_address": "Długa, Rybaki, Stare Miasto, Poznań, województwo wielkopolskie, 61-851, Polska",
      "lat": 52.4037413,
      "lon": 16.9352621,
      "start_time": "2026-07-07T08:00:00",
      "end_time": "2026-07-07T12:00:00",
      "original_description": "Poznań: ul. Półwiejska 7, 9, 11, ul. Długa 12.",
      "id": "602265cc6366dd2fe4571922493f92ef"
    },
    {
      "type": "planned",
      "geocoded_address": "Półwiejska, Rybaki, Stare Miasto, Poznań, województwo wielkopolskie, 61-885, Polska",
      "lat": 52.4038631,
      "lon": 16.9304338,
      "start_time": "2026-07-07T08:00:00",
      "end_time": "2026-07-07T12:00:00",
      "original_description": "Poznań: ul. Półwiejska 7, 9, 11, ul. Długa 12.",
      "id": "46fac8e6f7f3724d5419ed78a7ea88d5"
    },
    {
      "type": "planned",
      "geocoded_address": "23 Października, Tarnowo Podgórne, gmina Tarnowo Podgórne, powiat poznański, województwo wielkopolskie, 62-079, Polska",
      "lat": 52.4715184,
      "lon": 16.6480254,
      "start_time": "2026-07-07T08:00:00",
      "end_time": "2026-07-07T14:00:00",
      "original_description": "Gmina Tarnowo Podgórne miejscowość Tarnowo Podgórne ul. 23 Października 1, 1A, 8A, ul. Jasna 1, 2, 4, 6, ul. Poznańska 66, 72, 74A, ul. Rokietnicka 2, 3, 4, 7, 8, 10, 13, 15, 17, ul. Wąska 2, 3, 5, 8, 8A, 10, 12 działki nr 323/334, 373/2, Poczta Polska,",
      "id": "97c71c6bfaf073f2d935b570cc4bf854"
    },
    {
      "type": "planned",
      "geocoded_address": "Jasna, Marcelin, Ławica, Poznań, województwo wielkopolskie, 60-378, Polska",
      "lat": 52.4108856,
      "lon": 16.8649716,
      "start_time": "2026-07-07T08:00:00",
      "end_time": "2026-07-07T14:00:00",
      "original_description": "Gmina Tarnowo Podgórne miejscowość Tarnowo Podgórne ul. 23 Października 1, 1A, 8A, ul. Jasna 1, 2, 4, 6, ul. Poznańska 66, 72, 74A, ul. Rokietnicka 2, 3, 4, 7, 8, 10, 13, 15, 17, ul. Wąska 2, 3, 5, 8, 8A, 10, 12 działki nr 323/334, 373/2, Poczta Polska,",
      "id": "abc978ab49280ec2572fd4bfee0c51bb"
    },
    {
      "type": "planned",
      "geocoded_address": "Poznańska, Rynek Jeżycki, Jeżyce, Poznań, województwo wielkopolskie, 60-848, Polska",
      "lat": 52.4133513,
      "lon": 16.9048857,
      "start_time": "2026-07-07T08:00:00",
      "end_time": "2026-07-07T14:00:00",
      "original_description": "Gmina Tarnowo Podgórne miejscowość Tarnowo Podgórne ul. 23 Października 1, 1A, 8A, ul. Jasna 1, 2, 4, 6, ul. Poznańska 66, 72, 74A, ul. Rokietnicka 2, 3, 4, 7, 8, 10, 13, 15, 17, ul. Wąska 2, 3, 5, 8, 8A, 10, 12 działki nr 323/334, 373/2, Poczta Polska,",
      "id": "ca23d69f85d48a83b43f24d05aed8245"
    },
    {
      "type": "planned",
      "geocoded_address": "Rokietnicka, Łazarz, Poznań, województwo wielkopolskie, 60-806, Polska",
      "lat": 52.4069289,
      "lon": 16.8911038,
      "start_time": "2026-07-07T08:00:00",
      "end_time": "2026-07-07T14:00:00",
      "original_description": "Gmina Tarnowo Podgórne miejscowość Tarnowo Podgórne ul. 23 Października 1, 1A, 8A, ul. Jasna 1, 2, 4, 6, ul. Poznańska 66, 72, 74A, ul. Rokietnicka 2, 3, 4, 7, 8, 10, 13, 15, 17, ul. Wąska 2, 3, 5, 8, 8A, 10, 12 działki nr 323/334, 373/2, Poczta Polska,",
      "id": "162cb2587e2e4a95270e0091a22da774"
    },
    {
      "type": "planned",
      "geocoded_address": "Wąska, Rynek Jeżycki, Jeżyce, Poznań, województwo wielkopolskie, 60-859, Polska",
      "lat": 52.4140584,
      "lon": 16.9056711,
      "start_time": "2026-07-07T08:00:00",
      "end_time": "2026-07-07T14:00:00",
      "original_description": "Gmina Tarnowo Podgórne miejscowość Tarnowo Podgórne ul. 23 Października 1, 1A, 8A, ul. Jasna 1, 2, 4, 6, ul. Poznańska 66, 72, 74A, ul. Rokietnicka 2, 3, 4, 7, 8, 10, 13, 15, 17, ul. Wąska 2, 3, 5, 8, 8A, 10, 12 działki nr 323/334, 373/2, Poczta Polska,",
      "id": "1d58c2992e25bc98839aacfb45352f22"
    },
    {
      "type": "planned",
      "geocoded_address": "Wieprawska, Szczepankowo, Szczepankowo-Spławie-Krzesinki, Poznań, województwo wielkopolskie, 61-311, Polska",
      "lat": 52.3662855,
      "lon": 16.9983593,
      "start_time": "2026-07-07T08:30:00",
      "end_time": "2026-07-07T11:30:00",
      "original_description": "Poznań: ul. Wieprawska od 21 do 57 nieparzyste, od 24 do 58 parzyste.",
      "id": "e1cde5792ce5477d3326fda1a26dd67e"
    },
    {
      "type": "planned",
      "geocoded_address": "Śpiewu Ptaków, Ławica, Poznań, województwo wielkopolskie, 60-183, Polska",
      "lat": 52.4103353,
      "lon": 16.8176748,
      "start_time": "2026-07-09T08:00:00",
      "end_time": "2026-07-09T12:00:00",
      "original_description": "Poznań: ul. Śpiewu Ptaków.",
      "id": "76f8e59b59bf1a3b50e6ab01a61dc911"
    },
    {
      "type": "planned",
      "geocoded_address": "Startowa, Wola, Poznań, województwo wielkopolskie, 60-412, Polska",
      "lat": 52.4261395,
      "lon": 16.8562671,
      "start_time": "2026-07-09T08:00:00",
      "end_time": "2026-07-09T13:00:00",
      "original_description": "Janikowo: ul. Startowa 1, Aeroklub Poznański, Lotnisko Kobylnica - Hangar Samolotowy, ul. Ustronna 4.",
      "id": "76aa8d175ee2137c4270dd9b6fc0b564"
    },
    {
      "type": "planned",
      "geocoded_address": "Ustronna, Kotowo, Fabianowo-Kotowo, Poznań, województwo wielkopolskie, 60-004, Polska",
      "lat": 52.3493893,
      "lon": 16.8412987,
      "start_time": "2026-07-09T08:00:00",
      "end_time": "2026-07-09T13:00:00",
      "original_description": "Janikowo: ul. Startowa 1, Aeroklub Poznański, Lotnisko Kobylnica - Hangar Samolotowy, ul. Ustronna 4.",
      "id": "43dec1c78711e424648c7196d075f197"
    },
    {
      "type": "planned",
      "geocoded_address": "Sokoła, Osiedle Studenckie, Winiary, Poznań, województwo wielkopolskie, 60-653, Polska",
      "lat": 52.4288613,
      "lon": 16.9125281,
      "start_time": "2026-07-09T08:00:00",
      "end_time": "2026-07-09T14:00:00",
      "original_description": "Poznań: ul. Szydłowska od 2 do 26 parzyste, ul. Źródlana 31, ul. Sokoła od 33 do 59 nieparzyste.",
      "id": "8edf06d3dff6ad22f6008aa9923fa146"
    },
    {
      "type": "planned",
      "geocoded_address": "Szydłowska, Osiedle Przyjaźni, Winiary, Poznań, województwo wielkopolskie, 60-001, Polska",
      "lat": 52.4270743,
      "lon": 16.9134932,
      "start_time": "2026-07-09T08:00:00",
      "end_time": "2026-07-09T14:00:00",
      "original_description": "Poznań: ul. Szydłowska od 2 do 26 parzyste, ul. Źródlana 31, ul. Sokoła od 33 do 59 nieparzyste.",
      "id": "3fc742bedafb8fdf0320954e779362a3"
    },
    {
      "type": "planned",
      "geocoded_address": "Źródlana, Bonin, Winiary, Poznań, województwo wielkopolskie, 60-642, Polska",
      "lat": 52.425412,
      "lon": 16.91106,
      "start_time": "2026-07-09T08:00:00",
      "end_time": "2026-07-09T14:00:00",
      "original_description": "Poznań: ul. Szydłowska od 2 do 26 parzyste, ul. Źródlana 31, ul. Sokoła od 33 do 59 nieparzyste.",
      "id": "a6cb186eecd4ed12fbee38e5fd5c7103"
    },
    {
      "type": "planned",
      "geocoded_address": "Bukowska, Łazarz, Poznań, województwo wielkopolskie, 60-809, Polska",
      "lat": 52.4063647,
      "lon": 16.9116898,
      "start_time": "2026-07-10T08:30:00",
      "end_time": "2026-07-10T11:30:00",
      "original_description": "Poznań: ul. Bukowska 107A, od 109 do 127 nieparzyste.",
      "id": "34c60807412dbcec0f2ec1d699675009"
    },
    {
      "type": "planned",
      "geocoded_address": "Aleja Wielkopolska, Sołacz, Poznań, województwo wielkopolskie, 61-672, Polska",
      "lat": 52.4163884,
      "lon": 16.9180078,
      "start_time": "2026-07-13T08:00:00",
      "end_time": "2026-07-13T15:00:00",
      "original_description": "Poznań: ul. Aleja Wielkopolska 30, 34, 36, 55, ul. Pałucka od 1 do 37 nieparzyste, od 2 do 44 parzyste, ul. Nad Wierzbakiem 8, ul. Żmudzka, ul. Grudzieniec 50.",
      "id": "25a539ca596afd3af0a4023f79c99deb"
    },
    {
      "type": "planned",
      "geocoded_address": "Grudzieniec, Niestachów, Sołacz, Poznań, województwo wielkopolskie, 60-546, Polska",
      "lat": 52.4194773,
      "lon": 16.9010792,
      "start_time": "2026-07-13T08:00:00",
      "end_time": "2026-07-13T15:00:00",
      "original_description": "Poznań: ul. Aleja Wielkopolska 30, 34, 36, 55, ul. Pałucka od 1 do 37 nieparzyste, od 2 do 44 parzyste, ul. Nad Wierzbakiem 8, ul. Żmudzka, ul. Grudzieniec 50.",
      "id": "421200912044db7c600a13420ed3a72b"
    },
    {
      "type": "planned",
      "geocoded_address": "Nad Wierzbakiem, Niestachów, Sołacz, Poznań, województwo wielkopolskie, 60-863, Polska",
      "lat": 52.4190922,
      "lon": 16.9080402,
      "start_time": "2026-07-13T08:00:00",
      "end_time": "2026-07-13T15:00:00",
      "original_description": "Poznań: ul. Aleja Wielkopolska 30, 34, 36, 55, ul. Pałucka od 1 do 37 nieparzyste, od 2 do 44 parzyste, ul. Nad Wierzbakiem 8, ul. Żmudzka, ul. Grudzieniec 50.",
      "id": "bb60fbc007c987c0db4df98abe7b6026"
    },
    {
      "type": "planned",
      "geocoded_address": "Pałucka, Sołacz, Poznań, województwo wielkopolskie, 60-601, Polska",
      "lat": 52.4188623,
      "lon": 16.9106671,
      "start_time": "2026-07-13T08:00:00",
      "end_time": "2026-07-13T15:00:00",
      "original_description": "Poznań: ul. Aleja Wielkopolska 30, 34, 36, 55, ul. Pałucka od 1 do 37 nieparzyste, od 2 do 44 parzyste, ul. Nad Wierzbakiem 8, ul. Żmudzka, ul. Grudzieniec 50.",
      "id": "9f68ae9c6e6e45bc3be3519a33592f51"
    },
    {
      "type": "planned",
      "geocoded_address": "Żmudzka, Sołacz, Poznań, województwo wielkopolskie, 60-601, Polska",
      "lat": 52.4188401,
      "lon": 16.9103752,
      "start_time": "2026-07-13T08:00:00",
      "end_time": "2026-07-13T15:00:00",
      "original_description": "Poznań: ul. Aleja Wielkopolska 30, 34, 36, 55, ul. Pałucka od 1 do 37 nieparzyste, od 2 do 44 parzyste, ul. Nad Wierzbakiem 8, ul. Żmudzka, ul. Grudzieniec 50.",
      "id": "b6dac5759025e7a2a279e3fa909a4811"
    },
    {
      "type": "planned",
      "geocoded_address": "Floksowa, Kwiatowe, Poznań, województwo wielkopolskie, 60-175, Polska",
      "lat": 52.3851886,
      "lon": 16.8162566,
      "start_time": "2026-07-13T08:30:00",
      "end_time": "2026-07-13T11:30:00",
      "original_description": "Poznań: ul. Lewkoniowa bez 22A, ul. Malwowa 64, ul. Floksowa 18, ul. Szarotkowa 102, 104, ul. Łubinowa 14A.",
      "id": "0275890b725867e4460f2bf29fd2394f"
    },
    {
      "type": "planned",
      "geocoded_address": "Malwowa, Osiedle Kwiatowe, Poznań, województwo wielkopolskie, 60-175, Polska",
      "lat": 52.3853433,
      "lon": 16.8236995,
      "start_time": "2026-07-13T08:30:00",
      "end_time": "2026-07-13T11:30:00",
      "original_description": "Poznań: ul. Lewkoniowa bez 22A, ul. Malwowa 64, ul. Floksowa 18, ul. Szarotkowa 102, 104, ul. Łubinowa 14A.",
      "id": "f9ab07bde68ccbd229da2aa287096d88"
    },
    {
      "type": "planned",
      "geocoded_address": "Szarotkowa, Osiedle Kwiatowe, Poznań, gmina Dopiewo, powiat poznański, województwo wielkopolskie, 60-175, Polska",
      "lat": 52.3839374,
      "lon": 16.8128112,
      "start_time": "2026-07-13T08:30:00",
      "end_time": "2026-07-13T11:30:00",
      "original_description": "Poznań: ul. Lewkoniowa bez 22A, ul. Malwowa 64, ul. Floksowa 18, ul. Szarotkowa 102, 104, ul. Łubinowa 14A.",
      "id": "a8ae88416a750282fd1687f60d0f2a6e"
    },
    {
      "type": "planned",
      "geocoded_address": "Łubinowa, Kwiatowe, Poznań, województwo wielkopolskie, 60-175, Polska",
      "lat": 52.3839796,
      "lon": 16.8186772,
      "start_time": "2026-07-13T08:30:00",
      "end_time": "2026-07-13T11:30:00",
      "original_description": "Poznań: ul. Lewkoniowa bez 22A, ul. Malwowa 64, ul. Floksowa 18, ul. Szarotkowa 102, 104, ul. Łubinowa 14A.",
      "id": "ebfa17e54d2a1a8bf0de588f294d867d"
    },
    {
      "type": "planned",
      "geocoded_address": "Ogrodowa, Piekary, Stare Miasto, Poznań, województwo wielkopolskie, 61-825, Polska",
      "lat": 52.4038105,
      "lon": 16.929477,
      "start_time": "2026-07-14T08:00:00",
      "end_time": "2026-07-14T13:00:00",
      "original_description": "Poznań: ul. Ogrodowa 11, 13, 14, 15, 16, 17, 18, ul. Piekary 13.",
      "id": "c4aede85376f3b52ffd1598d58250a0f"
    },
    {
      "type": "planned",
      "geocoded_address": "Piekary, Stare Miasto, Poznań, województwo wielkopolskie, 61-820, Polska",
      "lat": 52.4042344,
      "lon": 16.9283714,
      "start_time": "2026-07-14T08:00:00",
      "end_time": "2026-07-14T13:00:00",
      "original_description": "Poznań: ul. Ogrodowa 11, 13, 14, 15, 16, 17, 18, ul. Piekary 13.",
      "id": "ff4655671c43bf240b1bfd09f3610c22"
    },
    {
      "type": "planned",
      "geocoded_address": "Włościańska, Piątkowo, Poznań, województwo wielkopolskie, 61-691, Polska",
      "lat": 52.4438307,
      "lon": 16.9092738,
      "start_time": "2026-07-14T08:00:00",
      "end_time": "2026-07-14T14:00:00",
      "original_description": "Poznań: ul. Włościańska dz. 16/21 Garaż.",
      "id": "b51265177066d6b1fcdc0bfcdbddd87a"
    },
    {
      "type": "planned",
      "geocoded_address": "Bzowa, Wilda, Poznań, województwo wielkopolskie, 61-478, Polska",
      "lat": 52.3758771,
      "lon": 16.9087018,
      "start_time": "2026-07-14T08:30:00",
      "end_time": "2026-07-14T11:30:00",
      "original_description": "Poznań: ul. Bzowa, ul. Wiśniowa od 8 do 12 parzyste, 11A, 13B-C.",
      "id": "18325fd71e6aa1d05b1d5a18b7f1bf29"
    },
    {
      "type": "planned",
      "geocoded_address": "Wiśniowa, Wilda, Poznań, województwo wielkopolskie, 61-478, Polska",
      "lat": 52.3752583,
      "lon": 16.909929,
      "start_time": "2026-07-14T08:30:00",
      "end_time": "2026-07-14T11:30:00",
      "original_description": "Poznań: ul. Bzowa, ul. Wiśniowa od 8 do 12 parzyste, 11A, 13B-C.",
      "id": "7b496e39d4cea37520b85e7ecc7e24e4"
    },
    {
      "type": "planned",
      "geocoded_address": "Gorajska, Sytkowo, Smochowice, Krzyżowniki-Smochowice, Poznań, województwo wielkopolskie, 60-427, Polska",
      "lat": 52.4311072,
      "lon": 16.8349776,
      "start_time": "2026-07-14T08:30:00",
      "end_time": "2026-07-14T12:30:00",
      "original_description": "Poznań: ul. Wituchowska, ul. Przybrodzka od 11 do 17 nieparzyste, ul. Gorajska, 9, od 2 do 10 parzyste, ul. Prusimska 4, 10, 10A.",
      "id": "2e991d83cd606be8e19d69fc7581ed04"
    },
    {
      "type": "planned",
      "geocoded_address": "Prusimska, Sytkowo, Smochowice, Krzyżowniki-Smochowice, Poznań, województwo wielkopolskie, 60-427, Polska",
      "lat": 52.4299177,
      "lon": 16.8341407,
      "start_time": "2026-07-14T08:30:00",
      "end_time": "2026-07-14T12:30:00",
      "original_description": "Poznań: ul. Wituchowska, ul. Przybrodzka od 11 do 17 nieparzyste, ul. Gorajska, 9, od 2 do 10 parzyste, ul. Prusimska 4, 10, 10A.",
      "id": "a3ed02ca1bea3ef14f0a5c880fed1b36"
    },
    {
      "type": "planned",
      "geocoded_address": "Przybrodzka, Sytkowo, Smochowice, Krzyżowniki-Smochowice, Poznań, województwo wielkopolskie, 60-427, Polska",
      "lat": 52.4273384,
      "lon": 16.8322745,
      "start_time": "2026-07-14T08:30:00",
      "end_time": "2026-07-14T12:30:00",
      "original_description": "Poznań: ul. Wituchowska, ul. Przybrodzka od 11 do 17 nieparzyste, ul. Gorajska, 9, od 2 do 10 parzyste, ul. Prusimska 4, 10, 10A.",
      "id": "3ba7b6c8dd55f18fe5fba6d941f113bc"
    },
    {
      "type": "planned",
      "geocoded_address": "Wituchowska, Sytkowo, Smochowice, Krzyżowniki-Smochowice, Poznań, województwo wielkopolskie, 60-427, Polska",
      "lat": 52.4301105,
      "lon": 16.8318698,
      "start_time": "2026-07-14T08:30:00",
      "end_time": "2026-07-14T12:30:00",
      "original_description": "Poznań: ul. Wituchowska, ul. Przybrodzka od 11 do 17 nieparzyste, ul. Gorajska, 9, od 2 do 10 parzyste, ul. Prusimska 4, 10, 10A.",
      "id": "184306e4a265323645193f2b69bac194"
    },
    {
      "type": "planned",
      "geocoded_address": "Laurowa, Umultowo, Poznań, województwo wielkopolskie, 61-601, Polska",
      "lat": 52.4743835,
      "lon": 16.9422587,
      "start_time": "2026-07-15T08:30:00",
      "end_time": "2026-07-15T12:30:00",
      "original_description": "Poznań: ul. Rumiankowa od 5 do 45 nieparzyste, od 6 do 82 parzyste, dz. 896/10, ul. Laurowa 21, 24, od 30 do 36 parzyste, dz. 118/13, ul. Naramowicka 344, 344A, 345, 346, 352, 357, 357B, 359, 359A, dz. 117/14, dz. 137/12.",
      "id": "5c12aa30f5c890543b92e725321d1fd5"
    },
    {
      "type": "planned",
      "geocoded_address": "Naramowicka, Szeląg, Nowe Winogrady Południe, Winogrady, Poznań, województwo wielkopolskie, 60-001, Polska",
      "lat": 52.4294534,
      "lon": 16.9466555,
      "start_time": "2026-07-15T08:30:00",
      "end_time": "2026-07-15T12:30:00",
      "original_description": "Poznań: ul. Rumiankowa od 5 do 45 nieparzyste, od 6 do 82 parzyste, dz. 896/10, ul. Laurowa 21, 24, od 30 do 36 parzyste, dz. 118/13, ul. Naramowicka 344, 344A, 345, 346, 352, 357, 357B, 359, 359A, dz. 117/14, dz. 137/12.",
      "id": "bbaca1694a79a2b4c704d9a0fafad195"
    },
    {
      "type": "planned",
      "geocoded_address": "Rumiankowa, Umultowo, Poznań, województwo wielkopolskie, 61-601, Polska",
      "lat": 52.4758672,
      "lon": 16.9442574,
      "start_time": "2026-07-15T08:30:00",
      "end_time": "2026-07-15T12:30:00",
      "original_description": "Poznań: ul. Rumiankowa od 5 do 45 nieparzyste, od 6 do 82 parzyste, dz. 896/10, ul. Laurowa 21, 24, od 30 do 36 parzyste, dz. 118/13, ul. Naramowicka 344, 344A, 345, 346, 352, 357, 357B, 359, 359A, dz. 117/14, dz. 137/12.",
      "id": "d74bdc2cf1c973b229c39e26b876a35a"
    },
    {
      "type": "planned",
      "geocoded_address": "Szczepankowo, Szczepankowo-Spławie-Krzesinki, Poznań, województwo wielkopolskie, Polska",
      "lat": 52.3647399,
      "lon": 17.0058453,
      "start_time": "2026-07-16T08:30:00",
      "end_time": "2026-07-16T12:30:00",
      "original_description": "Poznań: ul. Szczepankowo 133A, 135, od 139 do 173A nieparzyste, od 140 do 150 bez 148A-J, ul. Wąskotorowa 23, 25.",
      "id": "a55f5e2c675ee31ddd539c18c354bc8e"
    },
    {
      "type": "planned",
      "geocoded_address": "Wąskotorowa, Szczepankowo, Szczepankowo-Spławie-Krzesinki, Poznań, województwo wielkopolskie, 61-313, Polska",
      "lat": 52.3494664,
      "lon": 17.0367871,
      "start_time": "2026-07-16T08:30:00",
      "end_time": "2026-07-16T12:30:00",
      "original_description": "Poznań: ul. Szczepankowo 133A, 135, od 139 do 173A nieparzyste, od 140 do 150 bez 148A-J, ul. Wąskotorowa 23, 25.",
      "id": "971b85b98a6c9831085db6c898f699fe"
    },
    {
      "type": "planned",
      "geocoded_address": "Pastewna, Szczepankowo, Szczepankowo-Spławie-Krzesinki, Poznań, województwo wielkopolskie, 61-310, Polska",
      "lat": 52.3613776,
      "lon": 17.0076061,
      "start_time": "2026-07-17T08:30:00",
      "end_time": "2026-07-17T12:30:00",
      "original_description": "Poznań: ul. Skibowa od 2 do 14 parzyste, ul. Pastewna.",
      "id": "24cf6927ef0bb813dbd35b501287ce32"
    },
    {
      "type": "planned",
      "geocoded_address": "Skibowa, Szczepankowo, Szczepankowo-Spławie-Krzesinki, Poznań, województwo wielkopolskie, 61-310, Polska",
      "lat": 52.3614483,
      "lon": 17.0062785,
      "start_time": "2026-07-17T08:30:00",
      "end_time": "2026-07-17T12:30:00",
      "original_description": "Poznań: ul. Skibowa od 2 do 14 parzyste, ul. Pastewna.",
      "id": "d61c4a5e241599fd11058bb88128d098"
    }
  ]
}